[
    {
        "type": "Helferkreis",
        "lat": 48.08696,
        "long": 11.827109,
        "radius": 2000,
        "name": "Helferkreis Zorneding",
        "cityCode": 85604,
        "city": "Zorneding",
        "tags": "Spenden",
        "homepage": "http://www.helferkreis-zorneding.de/"
    },
    {
        "type": "politische Organisation",
        "lat": 48.13551,
        "long": 11.55812,
        "radius": 0,
        "name": "Münchner Flüchtlingsrat",
        "street": "Goethestraße",
        "number": 53,
        "cityCode": 80336,
        "city": "München",
        "desc": "Dachorganisation",
        "tags": "Info Hub",
        "homepage": "https://muenchner-fluechtlingsrat.de/",
        "contact": "info@muenchner-fluechtlingsrat.de"
    },
    {
        "type": "Helferkreis",
        "lat": 48.130428,
        "long": 11.508125,
        "radius": 0,
        "name": "Weißblauer Bummerang",
        "street": "Friedenheimer Straße",
        "number": 140,
        "cityCode": 80686,
        "city": "München",
        "desc": "Hilfe für Kinder",
        "tags": "Zeitspenden, Sachspenden",
        "homepage": "https://www.weissblauer-bumerang.de/",
        "contact": "Info@weissblauer-bumerang.de"
    },
    {
        "type": "Helferkreis",
        "lat": 48.13319,
        "long": 11.55883,
        "radius": 0,
        "name": "Save Me",
        "street": "Goethestraße",
        "number": 53,
        "cityCode": 80336,
        "city": "München",
        "desc": "Resettlement Kampagne",
        "tags": "politische Arbeit",
        "homepage": "http://www.save-me-muenchen.de/de/",
        "contact": "kampagne@save-me-muenchen.de"
    },
    {
        "type": "Helferkreis",
        "lat": 48.118931,
        "long": 11.512449,
        "radius": 0,
        "name": "Helferkreis Tübinger und Hansastraße",
        "street": "Bielitzer Straße",
        "number": "3b",
        "cityCode": 81377,
        "city": "München",
        "desc": "Helferkreis",
        "tags": "Zeitspenden",
        "homepage": "https://helferkreis-tuebinger-und-hansastrasse.traum-verleih.de/"
    },
    {
        "type": "Sozialgenossenschaft",
        "lat": 48.164468,
        "long": 11.561663,
        "radius": 0,
        "name": "Bellevue di Monaco",
        "street": "Saarstraße",
        "number": 5,
        "cityCode": 80797,
        "city": "München",
        "desc": "Sozialgenossenschaft",
        "tags": "Zeitspenden, Sachspenden",
        "homepage": "http://bellevuedimonaco.de/"
    },
    {
        "type": "Anlaufstelle",
        "lat": 48.156063,
        "long": 11.561091,
        "radius": 0,
        "name": "Café 104",
        "street": "Görresstraße ",
        "number": 43,
        "cityCode": 80797,
        "city": "München",
        "desc": "Anlaufstelle",
        "tags": "Zeitspenden, Sachspenden",
        "homepage": "http://cafe104.maxverein.de/"
    },
    {
        "type": "Helferkreis",
        "lat": 48.12478,
        "long": 11.47879,
        "radius": 0,
        "name": "Miteinander leben in Hadern e.V.",
        "street": "Terofalstraße",
        "number": 5,
        "cityCode": 80689,
        "city": "München",
        "desc": "Helferkreis",
        "tags": "Zeitspenden, Sachspenden",
        "homepage": "http://www.miteinander-leben-in-hadern.de/"
    },
    {
        "type": "Helferkreis",
        "lat": 48.311465,
        "long": 11.918876,
        "radius": 2000,
        "name": "AGA Aktionsgruppe Asyl Erding",
        "street": "Postfach ",
        "number": 1437,
        "cityCode": 85435,
        "city": "Erding",
        "desc": "Helferkreis",
        "tags": "Zeitspenden, Sachspenden"
    }
]